[
  {
    "id": 1,
    "name": "Burger King",
    "category": "Restaurante",
    "address": "Calle 10 #40-20, El Poblado",
    "latitude": 6.2092,
    "longitude": -75.5676,
    "phone": "3001112233",
    "rating": 4.5,
    "is_open": true,
    "delivery_time": 30,
    "image": "https://images.unsplash.com/photo-1571091718767-18b5b1457add?w=500&q=80"
  },
  {
    "id": 2,
    "name": "Farmatodo",
    "category": "Farmacia",
    "address": "Av. El Poblado #3-45",
    "latitude": 6.2050,
    "longitude": -75.5650,
    "phone": "3004445566",
    "rating": 4.8,
    "is_open": true,
    "delivery_time": 25,
    "image": "https://images.unsplash.com/photo-1585435557343-3b092031a831?w=500&q=80"
  },
  {
    "id": 3,
    "name": "Carulla Express",
    "category": "Supermercado",
    "address": "Laureles Transversal 39B",
    "latitude": 6.2425,
    "longitude": -75.5894,
    "phone": "3007778899",
    "rating": 4.6,
    "is_open": true,
    "delivery_time": 40,
    "image": "https://images.unsplash.com/photo-1578916171728-46686eac8d58?w=500&q=80"
  },
  {
    "id": 4,
    "name": "Starbucks Coffee",
    "category": "Cafetería",
    "address": "Milla de Oro, Medellín",
    "latitude": 6.2000,
    "longitude": -75.5700,
    "phone": "3002223344",
    "rating": 4.7,
    "is_open": true,
    "delivery_time": 20,
    "image": "https://images.unsplash.com/photo-1509042239860-f550ce710b93?w=500&q=80"
  },
  {
    "id": 5,
    "name": "El Corral",
    "category": "Restaurante",
    "address": "Centro Comercial Santafé",
    "latitude": 6.1965,
    "longitude": -75.5735,
    "phone": "3005556677",
    "rating": 4.9,
    "is_open": true,
    "delivery_time": 35,
    "image": "https://images.unsplash.com/photo-1561758033-d89a9ad46330?w=500&q=80"
  },
  {
    "id": 6,
    "name": "Droguería La Rebaja",
    "category": "Farmacia",
    "address": "Calle 50 Colombia",
    "latitude": 6.2500,
    "longitude": -75.5700,
    "phone": "3008889900",
    "rating": 4.2,
    "is_open": true,
    "delivery_time": 15,
    "image": "https://images.unsplash.com/photo-1631549916768-4119b2e5f926?w=500&q=80"
  },
  {
    "id": 7,
    "name": "D1 Tiendas",
    "category": "Supermercado",
    "address": "Belen Rosales",
    "latitude": 6.2300,
    "longitude": -75.6000,
    "phone": "3001230000",
    "rating": 4.4,
    "is_open": true,
    "delivery_time": 45,
    "image": "https://images.unsplash.com/photo-1542838132-92c53300491e?w=500&q=80"
  },
  {
    "id": 8,
    "name": "Dunkin' Donuts",
    "category": "Cafetería",
    "address": "Parque Lleras",
    "latitude": 6.2080,
    "longitude": -75.5660,
    "phone": "3009876543",
    "rating": 4.3,
    "is_open": true,
    "delivery_time": 25,
    "image": "https://images.unsplash.com/photo-1551024601-569d6f7e1278?w=500&q=80"
  },
  {
    "id": 9,
    "name": "Frisby",
    "category": "Restaurante",
    "address": "Av. 80 Laureles",
    "latitude": 6.2450,
    "longitude": -75.5950,
    "phone": "3004567890",
    "rating": 4.8,
    "is_open": true,
    "delivery_time": 30,
    "image": "https://images.unsplash.com/photo-1626082927389-6cd097cdc6ec?w=500&q=80"
  },
  {
    "id": 10,
    "name": "Exito Wow",
    "category": "Supermercado",
    "address": "Envigado",
    "latitude": 6.1700,
    "longitude": -75.5900,
    "phone": "3001119999",
    "rating": 4.7,
    "is_open": true,
    "delivery_time": 50,
    "image": "https://images.unsplash.com/photo-1534723452862-4c874018d66d?w=500&q=80"
  }
]
